stop_id,stop_name,latitude,longitude,num_students,is_depot,is_school
D1,Mudichur,12.9087824349875,80.0687318469876,0,True,False
D2,Urapakkam (Vandalur),12.862808789785,80.0735509827197,0,True,False
D3,KPM (White gate),12.84784,79.705164,0,True,False
D4,Cheyyar,12.665127,79.540271,0,True,False
D5,Arakkonam,13.085169,79.665196,0,True,False
D6,Andarkuppam,13.3018159935211,80.1605308905006,0,True,False
D7,Ayapakkam (Giri Parking),13.0983519675888,80.1375425674804,0,True,False
D8,Kovilambakkam,12.945952533589,80.183073,0,True,False
D9,Vyasarpadi,13.1183954531132,80.2590355221496,0,True,False
D10,Red Hills,13.186653,80.197489,0,True,False
D11,Velachery,12.981663,80.218068,0,True,False
D12,Avadi (Kavarapalayam),13.1190381599159,80.084833580844,0,True,False
D13,Veppamapattu,13.124703,80.005885,0,True,False
D14,Ennore,13.210716,80.316931,0,True,False
D15,VGP (Golden Beach),12.913878,80.250407,0,True,False
D16,Chengalpet,12.678989,79.99472,0,True,False
D17,Minjur,13.290183,80.2006356,0,True,False
D18,Dusi (Sekar),12.775559,79.678338,0,True,False
D19,Lucas,13.1023727191351,80.1865509033309,0,True,False
D20,Sathya Garden,13.045805,80.198909,0,True,False
D21,Veerapuram,12.755278,80.009527,0,True,False
D22,Thiruvallur (Manavalan nagar),13.110843,79.910306,0,True,False
D23,Kallikuppam,13.131989,80.166861,0,True,False
D24,Thiruvallur (Venakatesan G),13.120736,79.910514,0,True,False
S1,Pickup Stop 1,13.1081301,80.1834405,25,False,False
S2,Pickup Stop 2,12.8386313,79.7017388,23,False,False
S3,Pickup Stop 3,12.9182365,80.0763806,3,False,False
S4,Pickup Stop 4,13.1066306,79.909061,13,False,False
S5,Pickup Stop 5,13.0366911,80.1577632,15,False,False
S6,Pickup Stop 6,13.0952783,79.6587218,16,False,False
S7,Pickup Stop 7,13.1365522,80.2565655,5,False,False
S8,Pickup Stop 8,12.6810883,79.9815472,7,False,False
S9,Pickup Stop 9,13.0280355,80.2261679,18,False,False
S10,Pickup Stop 10,13.0160537,80.005472,4,False,False
S11,Pickup Stop 11,12.9542247,80.1420342,6,False,False
S12,Pickup Stop 12,13.1441272,80.059733,2,False,False
S13,Pickup Stop 13,13.080051,80.1099993,8,False,False
S14,Pickup Stop 14,12.6808598,79.5708042,5,False,False
S15,Pickup Stop 15,13.0846071,80.2447311,13,False,False
S16,Pickup Stop 16,13.1185829,80.1574137,17,False,False
S17,Pickup Stop 17,12.9251652,79.5680523,7,False,False
S18,Pickup Stop 18,13.3197245,80.1825128,3,False,False
S19,Pickup Stop 19,13.3336689,79.8904538,5,False,False
S20,Pickup Stop 20,13.0312146,79.8561927,5,False,False
S21,Pickup Stop 21,12.8408253,80.0562959,2,False,False
S22,Pickup Stop 22,13.1649857,79.4372602,4,False,False
S23,Pickup Stop 23,12.9774891,80.2050769,6,False,False
S24,Pickup Stop 24,13.0668577,80.2098652,12,False,False
S25,Pickup Stop 25,12.952297,79.9398674,11,False,False
S26,Pickup Stop 26,13.2787896,80.2601839,4,False,False
S27,Pickup Stop 27,12.7188324,79.754445,2,False,False
S28,Pickup Stop 28,13.1244297,80.2039086,20,False,False
S29,Pickup Stop 29,13.0541191,80.0626209,7,False,False
S30,Pickup Stop 30,13.1841827,80.3087816,4,False,False
S31,Pickup Stop 31,13.0832055,80.1720488,23,False,False
S32,Pickup Stop 32,13.0410842,80.12757,11,False,False
S33,Pickup Stop 33,13.1356361,80.1030221,3,False,False
S34,Pickup Stop 34,13.1158031,80.2832731,16,False,False
S35,Pickup Stop 35,13.0324043,80.267503,4,False,False
S36,Pickup Stop 36,13.1802421,79.6057495,2,False,False
S37,Pickup Stop 37,12.9177991,80.1459621,2,False,False
S38,Pickup Stop 38,13.1367858,79.9227684,5,False,False
S39,Pickup Stop 39,12.9796351,80.1289858,14,False,False
S40,Pickup Stop 40,12.8029775,79.7106416,3,False,False
S41,Pickup Stop 41,13.0892987,80.1984626,16,False,False
S42,Pickup Stop 42,13.1294933,80.2407261,4,False,False
S43,Pickup Stop 43,12.9513769,80.255062,3,False,False
S44,Pickup Stop 44,12.6152364,79.7591194,3,False,False
S45,Pickup Stop 45,13.0449255,80.1859977,12,False,False
S46,Pickup Stop 46,12.8043217,79.7682319,2,False,False
S47,Pickup Stop 47,12.9318015,80.1230704,13,False,False
S48,Pickup Stop 48,13.0505209,80.092928,17,False,False
S49,Pickup Stop 49,13.1307576,80.1305618,24,False,False
S50,Pickup Stop 50,13.2522051,80.1554569,3,False,False
S51,Pickup Stop 51,13.1464727,80.2401984,9,False,False
S52,Pickup Stop 52,13.0401134,80.2050964,16,False,False
S53,Pickup Stop 53,13.0852877,80.224195,7,False,False
S54,Pickup Stop 54,12.8791391,79.9366357,3,False,False
S55,Pickup Stop 55,13.0974571,80.1462648,9,False,False
S56,Pickup Stop 56,13.1199574,80.0522794,5,False,False
S57,Pickup Stop 57,12.9169387,80.1939435,9,False,False
S58,Pickup Stop 58,12.9722223,80.1912881,11,False,False
S59,Pickup Stop 59,12.9962673,80.2624653,2,False,False
S60,Pickup Stop 60,13.1495337,80.2988791,6,False,False
S61,Pickup Stop 61,12.8196396,79.6954967,30,False,False
S62,Pickup Stop 62,13.0600572,80.274274,15,False,False
S63,Pickup Stop 63,12.780219,79.6776669,5,False,False
S64,Pickup Stop 64,13.0608277,80.135595,10,False,False
S65,Pickup Stop 65,12.9814932,79.967806,3,False,False
S66,Pickup Stop 66,13.1192282,80.0733776,11,False,False
S67,Pickup Stop 67,13.0977707,79.8605871,2,False,False
S68,Pickup Stop 68,13.0606091,80.1638857,11,False,False
S69,Pickup Stop 69,13.1785269,80.0970981,4,False,False
S70,Pickup Stop 70,13.0367234,80.0463079,4,False,False
S71,Pickup Stop 71,13.053787,80.1131979,10,False,False
S72,Pickup Stop 72,13.1188184,80.225731,16,False,False
S73,Pickup Stop 73,12.9991525,80.2147506,7,False,False
S74,Pickup Stop 74,12.9648611,80.1988128,19,False,False
S75,Pickup Stop 75,13.0222134,79.9579704,2,False,False
S76,Pickup Stop 76,12.8206376,79.7180123,6,False,False
S77,Pickup Stop 77,13.0323644,80.1634373,18,False,False
S78,Pickup Stop 78,13.0726049,79.671687,11,False,False
S79,Pickup Stop 79,13.1323215,80.1714386,19,False,False
S80,Pickup Stop 80,12.9029882,79.6836506,3,False,False
S81,Pickup Stop 81,12.7430501,79.9923106,2,False,False
S82,Pickup Stop 82,12.9797452,80.2211016,17,False,False
S83,Pickup Stop 83,13.1038188,80.2043294,19,False,False
S84,Pickup Stop 84,13.0190631,80.1425374,11,False,False
S85,Pickup Stop 85,13.1084685,80.2502219,10,False,False
S86,Pickup Stop 86,13.0712691,80.0330817,2,False,False
S87,Pickup Stop 87,12.9005398,80.0710662,3,False,False
S88,Pickup Stop 88,13.040093,80.2471791,7,False,False
S89,Pickup Stop 89,12.955952,80.1868305,9,False,False
S90,Pickup Stop 90,13.0908856,80.1084504,18,False,False
S91,Pickup Stop 91,12.9442642,80.1348523,12,False,False
S92,Pickup Stop 92,13.1955735,80.15511,4,False,False
S93,Pickup Stop 93,13.094362,80.0066645,5,False,False
S94,Pickup Stop 94,13.1580761,79.8899642,2,False,False
S95,Pickup Stop 95,13.0882287,80.1808849,32,False,False
S96,Pickup Stop 96,13.3403813,80.1968952,2,False,False
S97,Pickup Stop 97,12.9256076,80.1015803,7,False,False
S98,Pickup Stop 98,13.0559984,79.9127309,2,False,False
S99,Pickup Stop 99,13.2989391,80.1558252,2,False,False
S100,Pickup Stop 100,13.029265,80.1112467,10,False,False
S101,Pickup Stop 101,13.1285283,79.6408227,2,False,False
S102,Pickup Stop 102,12.9686602,80.148252,12,False,False
S103,Pickup Stop 103,13.0748287,80.2183293,18,False,False
S104,Pickup Stop 104,13.0254551,80.1831086,9,False,False
S105,Pickup Stop 105,12.8896379,80.1396313,3,False,False
S106,Pickup Stop 106,13.0982989,80.1367939,12,False,False
S107,Pickup Stop 107,13.0490629,80.1938845,10,False,False
S108,Pickup Stop 108,13.0859571,80.2555208,11,False,False
S109,Pickup Stop 109,13.104549,80.2775016,10,False,False
S110,Pickup Stop 110,13.0835758,79.9082837,6,False,False
S111,Pickup Stop 111,12.8101756,80.0298912,4,False,False
S112,Pickup Stop 112,13.0995166,80.217425,13,False,False
S113,Pickup Stop 113,13.0097107,80.1211656,12,False,False
S114,Pickup Stop 114,12.8263762,79.7082716,17,False,False
S115,Pickup Stop 115,12.9006877,79.4603333,2,False,False
S116,Pickup Stop 116,12.804098,80.2239072,5,False,False
S117,Pickup Stop 117,13.1555952,80.2269937,11,False,False
S118,Pickup Stop 118,13.0429082,80.2220416,17,False,False
S119,Pickup Stop 119,13.0382972,80.1344583,58,False,False
S120,Pickup Stop 120,12.8644399,80.0745198,14,False,False
S121,Pickup Stop 121,13.0715396,80.1230343,11,False,False
S122,Pickup Stop 122,13.0983954,80.2354855,11,False,False
S123,Pickup Stop 123,13.0795453,80.1804801,32,False,False
S124,Pickup Stop 124,12.8880479,80.026835,3,False,False
S125,Pickup Stop 125,13.2622789,80.2740284,5,False,False
S126,Pickup Stop 126,13.1248986,79.9111109,16,False,False
S127,Pickup Stop 127,13.1377265,80.2075976,16,False,False
S128,Pickup Stop 128,12.9974667,80.0944867,6,False,False
S129,Pickup Stop 129,13.1710834,80.305016,10,False,False
S130,Pickup Stop 130,12.9910147,80.180964,14,False,False
S131,Pickup Stop 131,13.1465943,80.2023367,6,False,False
S132,Pickup Stop 132,13.1651013,80.2538059,8,False,False
S133,Pickup Stop 133,13.0160514,79.730141,2,False,False
S134,Pickup Stop 134,13.0977799,80.2528422,14,False,False
S135,Pickup Stop 135,12.6923202,79.977506,8,False,False
S136,Pickup Stop 136,13.2088824,80.3162235,2,False,False
S137,Pickup Stop 137,12.8467476,79.6954089,16,False,False
S138,Pickup Stop 138,12.9338896,79.9087661,2,False,False
S139,Pickup Stop 139,12.9895108,79.6765006,2,False,False
S140,Pickup Stop 140,13.0254279,80.2069983,6,False,False
S141,Pickup Stop 141,13.116293,80.10278,14,False,False
S142,Pickup Stop 142,13.0731972,80.2524824,6,False,False
S143,Pickup Stop 143,13.0850874,80.2083439,24,False,False
S144,Pickup Stop 144,13.0376131,80.1933511,17,False,False
S145,Pickup Stop 145,12.9694382,80.2454099,3,False,False
S146,Pickup Stop 146,13.1397329,79.9071287,12,False,False
S147,Pickup Stop 147,12.9685375,79.9508648,4,False,False
S148,Pickup Stop 148,12.9236636,80.1563784,11,False,False
S149,Pickup Stop 149,13.040935,80.1730794,24,False,False
S150,Pickup Stop 150,13.1128092,80.2923433,11,False,False
S151,Pickup Stop 151,13.0299327,79.8278725,2,False,False
S152,Pickup Stop 152,12.907067,80.0969048,4,False,False
S153,Pickup Stop 153,12.8133381,79.7057931,16,False,False
S154,Pickup Stop 154,13.1112241,80.1087043,16,False,False
S155,Pickup Stop 155,13.1489467,80.1041817,3,False,False
S156,Pickup Stop 156,13.0066442,80.24615,5,False,False
S157,Pickup Stop 157,12.990266,80.1983434,20,False,False
S158,Pickup Stop 158,13.1047646,80.1531682,8,False,False
S159,Pickup Stop 159,13.0956267,80.2926528,7,False,False
S160,Pickup Stop 160,13.1139891,80.2351816,19,False,False
S161,Pickup Stop 161,12.9577196,80.127177,8,False,False
S162,Pickup Stop 162,13.0861659,80.18815,29,False,False
S163,Pickup Stop 163,13.047624,80.1202266,16,False,False
S164,Pickup Stop 164,13.1302579,80.1579369,20,False,False
S165,Pickup Stop 165,13.122126,80.1473929,38,False,False
S166,Pickup Stop 166,12.9406188,80.1827273,6,False,False
S167,Pickup Stop 167,13.0531773,80.2717407,11,False,False
S168,Pickup Stop 168,13.0151619,80.1299135,6,False,False
S169,Pickup Stop 169,13.1391984,80.2274981,9,False,False
S170,Pickup Stop 170,13.0270889,80.2599259,9,False,False
S171,Pickup Stop 171,13.0678104,80.2269115,22,False,False
S172,Pickup Stop 172,13.1261257,79.9937592,5,False,False
S173,Pickup Stop 173,13.045663,80.0798683,6,False,False
S174,Pickup Stop 174,12.9224803,80.1399188,13,False,False
S175,Pickup Stop 175,12.9770792,80.0513148,2,False,False
S176,Pickup Stop 176,13.1245513,80.0267371,6,False,False
S177,Pickup Stop 177,13.2029901,80.1759665,6,False,False
S178,Pickup Stop 178,13.3400979,80.1875609,2,False,False
S179,Pickup Stop 179,12.9814436,80.2592991,7,False,False
S180,Pickup Stop 180,13.0478205,80.2030528,14,False,False
S181,Pickup Stop 181,12.7494339,79.6754962,2,False,False
S182,Pickup Stop 182,13.1233699,80.2228531,31,False,False
S183,Pickup Stop 183,12.8389849,79.7190597,4,False,False
S184,Pickup Stop 184,13.1193384,80.0945052,24,False,False
S185,Pickup Stop 185,13.1250972,80.2901414,15,False,False
S186,Pickup Stop 186,12.9743556,80.1354368,21,False,False
S187,Pickup Stop 187,12.8874935,80.1731108,2,False,False
S188,Pickup Stop 188,13.0282551,80.151315,8,False,False
S189,Pickup Stop 189,12.9551707,80.1555348,10,False,False
S190,Pickup Stop 190,13.0573302,80.2417428,11,False,False
S191,Pickup Stop 191,13.0649161,80.1721712,9,False,False
S192,Pickup Stop 192,12.9161916,80.064586,3,False,False
S193,Pickup Stop 193,13.0370201,80.0880854,11,False,False
S194,Pickup Stop 194,12.8180719,79.7326585,7,False,False
S195,Pickup Stop 195,13.075789,80.2681402,9,False,False
S196,Pickup Stop 196,13.117585,80.1980171,13,False,False
S197,Pickup Stop 197,13.1308106,80.2513305,11,False,False
S198,Pickup Stop 198,12.9208643,80.0897264,20,False,False
S199,Pickup Stop 199,13.0811279,80.165092,30,False,False
S200,Pickup Stop 200,13.1307532,80.1347223,6,False,False
S201,Pickup Stop 201,13.0601703,80.1956371,19,False,False
S202,Pickup Stop 202,13.0093775,79.997444,8,False,False
S203,Pickup Stop 203,13.088607,80.2635124,10,False,False
S204,Pickup Stop 204,12.798914,80.0227695,3,False,False
S205,Pickup Stop 205,13.0073884,80.1988454,5,False,False
S206,Pickup Stop 206,12.8414097,80.0616652,3,False,False
S207,Pickup Stop 207,13.1607411,80.3024955,8,False,False
S208,Pickup Stop 208,13.0903791,80.1238186,4,False,False
S209,Pickup Stop 209,13.0332055,80.2383291,7,False,False
S210,Pickup Stop 210,13.0436252,80.115125,32,False,False
S211,Pickup Stop 211,12.8863302,80.0793426,5,False,False
S212,Pickup Stop 212,13.1439096,80.1902892,5,False,False
S213,Pickup Stop 213,13.0673358,80.1520855,8,False,False
S214,Pickup Stop 214,13.0591456,80.2116665,17,False,False
S215,Pickup Stop 215,13.0131711,80.1715601,5,False,False
S216,Pickup Stop 216,13.0731491,80.1896355,6,False,False
S217,Pickup Stop 217,13.0242352,80.0232451,2,False,False
S218,Pickup Stop 218,12.9250316,80.1108545,6,False,False
S219,Pickup Stop 219,13.156321,80.196405,5,False,False
S220,Pickup Stop 220,13.0714633,80.2416141,5,False,False
S221,Pickup Stop 221,12.8380984,79.7277504,6,False,False
S222,Pickup Stop 222,12.9079606,80.14276,6,False,False
S223,Pickup Stop 223,13.1288541,80.215692,16,False,False
S224,Pickup Stop 224,13.098807,80.1320216,7,False,False
S225,Pickup Stop 225,13.1251146,80.0420347,5,False,False
S226,Pickup Stop 226,13.1214127,80.2593309,9,False,False
S227,Pickup Stop 227,13.1092007,80.095096,9,False,False
S228,Pickup Stop 228,13.0767159,80.2051543,11,False,False
S229,Pickup Stop 229,13.0324539,80.2184352,17,False,False
S230,Pickup Stop 230,13.0377577,80.2783566,11,False,False
S231,Pickup Stop 231,13.0281033,80.17086,7,False,False
S232,Pickup Stop 232,13.0480609,80.2627831,6,False,False
S233,Pickup Stop 233,13.0356667,79.8153941,3,False,False
S234,Pickup Stop 234,13.0399718,80.1494906,6,False,False
S235,Pickup Stop 235,12.9539225,80.1618265,2,False,False
S236,Pickup Stop 236,13.166651,79.6151085,2,False,False
S237,Pickup Stop 237,13.069554,80.181279,10,False,False
S238,Pickup Stop 238,13.1338671,80.2926645,4,False,False
S239,Pickup Stop 239,12.9098737,80.1428582,6,False,False
S240,Pickup Stop 240,13.1589007,80.0617797,5,False,False
S241,Pickup Stop 241,13.1022145,80.1068079,12,False,False
E1,Main School (End Point),12.9236,80.1437,0,False,True
